[
    {
        "lat": 28.7256504,
        "lon": 77.2011573,
        "id": "site_104",
        "name": "Burari Crossing, Delhi - IMD",
        "city": "Delhi"
    },
    {
        "lat": 28.5627763,
        "lon": 77.1180053,
        "id": "site_106",
        "name": "IGI Airport (T3), Delhi - IMD",
        "city": "Delhi"
    },
    {
        "lat": 28.6514781,
        "lon": 77.1473105,
        "id": "site_113",
        "name": "Shadipur, Delhi - CPCB",
        "city": "Delhi"
    },
    {
        "lat": 28.6811736,
        "lon": 77.3025234,
        "id": "site_114",
        "name": "IHBAS, Dilshad Garden, Delhi - CPCB",
        "city": "Delhi"
    },
    {
        "lat": 28.60909,
        "lon": 77.0325413,
        "id": "site_115",
        "name": "NSIT Dwarka, Delhi - CPCB",
        "city": "Delhi"
    },
    {
        "lat": 28.628624,
        "lon": 77.24106,
        "id": "site_117",
        "name": "ITO, Delhi - CPCB",
        "city": "Delhi"
    },
    {
        "lat": 28.7500499,
        "lon": 77.1112615,
        "id": "site_118",
        "name": "DTU, Delhi - CPCB",
        "city": "Delhi"
    },
    {
        "lat": 28.5504249,
        "lon": 77.2159377,
        "id": "site_119",
        "name": "Sirifort, Delhi - CPCB",
        "city": "Delhi"
    },
    {
        "lat": 28.636429,
        "lon": 77.201067,
        "id": "site_122",
        "name": "Mandir Marg, Delhi - DPCC",
        "city": "Delhi"
    },
    {
        "lat": 28.563262,
        "lon": 77.186937,
        "avg": 134.69565217391303,
        "id": "site_124",
        "name": "R K Puram, Delhi - DPCC"
    },
    {
        "lat": 28.695381,
        "lon": 77.181665,
        "id": "site_1420",
        "name": "Ashok Vihar, Delhi - DPCC",
        "city": "Delhi"
    },
    {
        "lat": 28.498571,
        "lon": 77.26484,
        "id": "site_1421",
        "name": "Dr. Karni Singh Shooting Range, Delhi - DPCC",
        "city": "Delhi"
    },
    {
        "lat": 28.73282,
        "lon": 77.170633,
        "id": "site_1423",
        "name": "Jahangirpuri, Delhi - DPCC",
        "city": "Delhi"
    },
    {
        "lat": 28.58028,
        "lon": 77.233829,
        "id": "site_1424",
        "name": "Jawaharlal Nehru Stadium, Delhi - DPCC",
        "city": "Delhi"
    },
    {
        "lat": 28.611281,
        "lon": 77.237738,
        "id": "site_1425",
        "name": "Major Dhyan Chand National Stadium, Delhi - DPCC",
        "city": "Delhi"
    },
    {
        "lat": 28.822836,
        "lon": 77.101981,
        "id": "site_1426",
        "name": "Narela, Delhi - DPCC",
        "city": "Delhi"
    },
    {
        "lat": 28.570173,
        "lon": 76.933762,
        "id": "site_1427",
        "name": "Najafgarh, Delhi - DPCC",
        "city": "Delhi"
    },
    {
        "lat": 28.530785,
        "lon": 77.271255,
        "id": "site_1428",
        "name": "Okhla Phase-2, Delhi - DPCC",
        "city": "Delhi"
    },
    {
        "lat": 28.56789,
        "lon": 77.250515,
        "id": "site_1429",
        "name": "Nehru Nagar, Delhi - DPCC",
        "city": "Delhi"
    },
    {
        "lat": 28.732528,
        "lon": 77.11992,
        "id": "site_1430",
        "name": "Rohini, Delhi - DPCC",
        "city": "Delhi"
    },
    {
        "lat": 28.623763,
        "lon": 77.287209,
        "id": "site_1431",
        "name": "Patparganj, Delhi - DPCC"
    },
    {
        "lat": 28.710508,
        "lon": 77.249485,
        "id": "site_1432",
        "name": "Sonia Vihar, Delhi - DPCC",
        "city": "Delhi"
    },
    {
        "lat": 28.699793,
        "lon": 77.165453,
        "id": "site_1434",
        "name": "Wazirpur, Delhi - DPCC",
        "city": "Delhi"
    },
    {
        "lat": 28.672342,
        "lon": 77.31526,
        "id": "site_1435",
        "name": "Vivek Vihar, Delhi - DPCC",
        "city": "Delhi"
    },
    {
        "lat": 12.951913,
        "lon": 77.539784,
        "id": "site_1553",
        "name": "Bapuji Nagar, Bengaluru - KSPCB",
        "city": "Bengaluru"
    },
    {
        "lat": 13.029152,
        "lon": 77.585901,
        "id": "site_1554",
        "name": "Hebbal, Bengaluru - KSPCB",
        "city": "Bengaluru"
    },
    {
        "lat": 12.938539,
        "lon": 77.5901,
        "id": "site_1555",
        "name": "Hombegowda Nagar, Bengaluru - KSPCB",
        "city": "Bengaluru"
    },
    {
        "lat": 12.920984,
        "lon": 77.584908,
        "id": "site_1556",
        "name": "Jayanagar 5th Block, Bengaluru - KSPCB",
        "city": "Bengaluru"
    },
    {
        "lat": 12.917348,
        "lon": 77.622813,
        "id": "site_1558",
        "name": "Silk Board, Bengaluru - KSPCB",
        "city": "Bengaluru"
    },
    {
        "lat": 28.7762,
        "lon": 77.051074,
        "id": "site_1560",
        "name": "Bawana, Delhi - DPCC",
        "city": "Delhi"
    },
    {
        "lat": 28.684678,
        "lon": 77.076574,
        "id": "site_1561",
        "name": "Mundka, Delhi - DPCC",
        "city": "Delhi"
    },
    {
        "lat": 28.531346,
        "lon": 77.190156,
        "id": "site_1562",
        "name": "Sri Aurobindo Marg, Delhi - DPCC",
        "city": "Delhi"
    },
    {
        "lat": 28.639652,
        "lon": 77.146275,
        "id": "site_1563",
        "name": "Pusa, Delhi - DPCC",
        "city": "Delhi"
    },
    {
        "lat": 12.9135218,
        "lon": 77.5950804,
        "id": "site_162",
        "name": "BTM Layout, Bengaluru - CPCB",
        "city": "Bengaluru"
    },
    {
        "lat": 13.0270199,
        "lon": 77.494094,
        "id": "site_163",
        "name": "Peenya, Bengaluru - CPCB",
        "city": "Bengaluru"
    },
    {
        "lat": 12.9756843,
        "lon": 77.5660749,
        "id": "site_165",
        "name": "City Railway Station, Bengaluru - KSPCB",
        "city": "Bengaluru"
    },
    {
        "lat": 12.990328,
        "lon": 77.5431385,
        "id": "site_166",
        "name": "Sanegurava Halli, Bengaluru - KSPCB",
        "city": "Bengaluru"
    },
    {
        "lat": 17.540891,
        "lon": 78.358528,
        "id": "site_199",
        "name": "Bollaram Industrial Area, Hyderabad - TSPCB",
        "city": "Hyderabad"
    },
    {
        "lat": 17.5184,
        "lon": 78.278777,
        "id": "site_251",
        "name": "ICRISAT Patancheru, Hyderabad - TSPCB",
        "city": "Hyderabad"
    },
    {
        "lat": 17.460103,
        "lon": 78.334361,
        "id": "site_262",
        "name": "Central University, Hyderabad - TSPCB",
        "city": "Hyderabad"
    },
    {
        "lat": 17.5316895,
        "lon": 78.218939,
        "id": "site_275",
        "name": "IDA Pashamylaram, Hyderabad - TSPCB",
        "city": "Hyderabad"
    },
    {
        "lat": 17.4559458,
        "lon": 78.4332152,
        "id": "site_294",
        "name": "Sanathnagar, Hyderabad - TSPCB",
        "city": "Hyderabad"
    },
    {
        "lat": 22.627847,
        "lon": 88.380669,
        "id": "site_296",
        "name": "Rabindra Bharati University, Kolkata - WBPCB",
        "city": "Kolkata"
    },
    {
        "lat": 17.349694,
        "lon": 78.451437,
        "id": "site_298",
        "name": "Zoo Park, Hyderabad - TSPCB",
        "city": "Hyderabad"
    },
    {
        "lat": 28.647622,
        "lon": 77.315809,
        "id": "site_301",
        "name": "Anand Vihar, Delhi - DPCC",
        "city": "Delhi"
    },
    {
        "lat": 22.5448082,
        "lon": 88.3403691,
        "id": "site_309",
        "name": "Victoria, Kolkata - WBPCB",
        "city": "Kolkata"
    },
    {
        "lat": 28.815329,
        "lon": 77.15301,
        "id": "site_5024",
        "name": "Alipur, Delhi - DPCC",
        "city": "Delhi"
    },
    {
        "lat": 19.3832,
        "lon": 72.8204,
        "id": "site_5102",
        "name": "Vasai West, Mumbai - MPCB",
        "city": "Mumbai"
    },
    {
        "lat": 19.0863,
        "lon": 72.8888,
        "id": "site_5104",
        "name": "Kurla, Mumbai - MPCB",
        "city": "Mumbai"
    },
    {
        "lat": 19.10861,
        "lon": 72.83622,
        "id": "site_5106",
        "name": "Vile Parle West, Mumbai - MPCB",
        "city": "Mumbai"
    },
    {
        "lat": 19.10078,
        "lon": 72.87462,
        "id": "site_5107",
        "name": "Chhatrapati Shivaji Intl. Airport (T2), Mumbai - MPCB",
        "city": "Mumbai"
    },
    {
        "lat": 22.55664,
        "lon": 88.342674,
        "id": "site_5110",
        "name": "Fort William, Kolkata - WBPCB",
        "city": "Kolkata"
    },
    {
        "lat": 22.49929,
        "lon": 88.36917,
        "id": "site_5111",
        "name": "Jadavpur, Kolkata - WBPCB",
        "city": "Kolkata"
    },
    {
        "lat": 19.1375,
        "lon": 72.915056,
        "id": "site_5112",
        "name": "Powai, Mumbai - MPCB",
        "city": "Mumbai"
    },
    {
        "lat": 19.2243333,
        "lon": 72.8658113,
        "id": "site_5113",
        "name": "Borivali East, Mumbai - MPCB",
        "city": "Mumbai"
    },
    {
        "lat": 18.9936162,
        "lon": 72.8128113,
        "id": "site_5115",
        "name": "Worli, Mumbai - MPCB",
        "city": "Mumbai"
    },
    {
        "lat": 19.047,
        "lon": 72.8746,
        "id": "site_5119",
        "name": "Sion, Mumbai - MPCB",
        "city": "Mumbai"
    },
    {
        "lat": 18.91,
        "lon": 72.82,
        "id": "site_5120",
        "name": "Colaba, Mumbai - MPCB",
        "city": "Mumbai"
    },
    {
        "lat": 22.51106,
        "lon": 88.35142,
        "id": "site_5126",
        "name": "Rabindra Sarobar, Kolkata - WBPCB",
        "city": "Mumbai"
    },
    {
        "lat": 22.58157048,
        "lon": 88.41002457,
        "id": "site_5129",
        "name": "Bidhannagar, Kolkata - WBPCB",
        "city": "Kolkata"
    },
    {
        "lat": 22.5367507,
        "lon": 88.3638022,
        "id": "site_5238",
        "name": "Ballygunge, Kolkata - WBPCB",
        "city": "Kolkata"
    },
    {
        "lat": 28.656756,
        "lon": 77.227234,
        "id": "site_5393",
        "name": "Chandni Chowk, Delhi - IITM",
        "city": "Delhi"
    },
    {
        "lat": 18.96702,
        "lon": 72.84214,
        "id": "site_5394",
        "name": "Mazgaon, Mumbai - IITM",
        "city": "Mumbai"
    },
    {
        "lat": 28.588333,
        "lon": 77.221667,
        "id": "site_5395",
        "name": "Lodhi Road, Delhi - IITM",
        "city": "Delhi"
    },
    {
        "lat": 19.04946,
        "lon": 72.923,
        "id": "site_5396",
        "name": "Deonar, Mumbai - IITM",
        "city": "Mumbai"
    },
    {
        "lat": 19.1653323,
        "lon": 72.922099,
        "id": "site_5397",
        "name": "Khindipada-Bhandup West, Mumbai - IITM",
        "city": "Mumbai"
    },
    {
        "lat": 18.897756,
        "lon": 72.81332,
        "id": "site_5398",
        "name": "Navy Nagar-Colaba, Mumbai - IITM",
        "city": "Mumbai"
    },
    {
        "lat": 19.11074,
        "lon": 72.86084,
        "id": "site_5399",
        "name": "Chakala-Andheri East, Mumbai - IITM",
        "city": "Mumbai"
    },
    {
        "lat": 19.23241,
        "lon": 72.86895,
        "id": "site_5400",
        "name": "Borivali East, Mumbai - IITM",
        "city": "Mumbai"
    },
    {
        "lat": 19.19709,
        "lon": 72.82204,
        "id": "site_5402",
        "name": "Malad West, Mumbai - IITM",
        "city": "Mumbai"
    },
    {
        "lat": 19.000083,
        "lon": 72.813993,
        "id": "site_5403",
        "name": "Siddharth Nagar-Worli, Mumbai - IITM",
        "city": "Mumbai"
    },
    {
        "lat": 19.2058,
        "lon": 72.8682,
        "id": "site_5412",
        "name": "Kandivali East, Mumbai - MPCB",
        "city": "Mumbai"
    },
    {
        "lat": 19.175,
        "lon": 72.9419,
        "id": "site_5413",
        "name": "Mulund West, Mumbai - MPCB",
        "city": "Mumbai"
    },
    {
        "lat": 17.37206,
        "lon": 78.50864,
        "id": "site_5595",
        "name": "New Malakpet, Hyderabad - TSPCB",
        "city": "Hyderabad"
    },
    {
        "lat": 17.470431,
        "lon": 78.566959,
        "id": "site_5596",
        "name": "ECIL Kapra, Hyderabad - TSPCB",
        "city": "Hyderabad"
    },
    {
        "lat": 17.585705,
        "lon": 78.126199,
        "id": "site_5597",
        "name": "IITH Kandi, Hyderabad - TSPCB",
        "city": "Hyderabad"
    },
    {
        "lat": 17.417094,
        "lon": 78.457437,
        "id": "site_5598",
        "name": "Somajiguda, Hyderabad - TSPCB",
        "city": "Hyderabad"
    },
    {
        "lat": 17.544899,
        "lon": 78.486949,
        "id": "site_5599",
        "name": "Kompally Municipal Office, Hyderabad - TSPCB",
        "city": "Hyderabad"
    },
    {
        "lat": 17.429398,
        "lon": 78.569354,
        "id": "site_5600",
        "name": "Nacharam_TSIIC IALA, Hyderabad - TSPCB",
        "city": "Hyderabad"
    },
    {
        "lat": 17.528544,
        "lon": 78.286195,
        "id": "site_5602",
        "name": "Ramachandrapuram, Hyderabad - TSPCB",
        "city": "Hyderabad"
    },
    {
        "lat": 17.393559,
        "lon": 78.339194,
        "id": "site_5604",
        "name": "Kokapet, Hyderabad - TSPCB",
        "city": "Hyderabad"
    },
    {
        "lat": 12.921418,
        "lon": 77.502466,
        "id": "site_5678",
        "name": "RVCE-Mailasandra, Bengaluru - KSPCB",
        "city": "Bengaluru"
    },
    {
        "lat": 13.003872,
        "lon": 77.664217,
        "id": "site_5681",
        "name": "Kasturi Nagar, Bengaluru - KSPCB",
        "city": "Bengaluru"
    },
    {
        "lat": 13.0246342,
        "lon": 77.5080115,
        "id": "site_5686",
        "name": "Shivapura_Peenya, Bengaluru - KSPCB",
        "city": "Bengaluru"
    },
    {
        "lat": 12.7816279,
        "lon": 77.6299145,
        "id": "site_5729",
        "name": "Jigani, Bengaluru - KSPCB",
        "city": "Bengaluru"
    },
    {
        "lat": 19.1878657,
        "lon": 72.8304069,
        "id": "site_5807",
        "name": "Mindspace-Malad West, Mumbai - MPCB",
        "city": "Mumbai"
    },
    {
        "lat": 19.065931,
        "lon": 72.862131,
        "id": "site_5810",
        "name": "Bandra Kurla Complex, Mumbai - MPCB",
        "city": "Mumbai"
    },
    {
        "lat": 19.0364585,
        "lon": 72.8954371,
        "id": "site_5811",
        "name": "Chembur, Mumbai - MPCB",
        "city": "Mumbai"
    },
    {
        "lat": 19.0632143,
        "lon": 72.8456324,
        "id": "site_5814",
        "name": "Kherwadi_Bandra East, Mumbai - MPCB",
        "city": "Mumbai"
    },
    {
        "lat": 28.57834,
        "lon": 77.184,
        "id": "site_5852",
        "name": "New Moti Bagh, Delhi - MHUA",
        "city": "Delhi"
    },
    {
        "lat": 18.9767,
        "lon": 72.838,
        "id": "site_5960",
        "name": "Byculla, Mumbai - BMC",
        "city": "Mumbai"
    },
    {
        "lat": 19.060498,
        "lon": 72.923356,
        "id": "site_5961",
        "name": "Shivaji Nagar, Mumbai - BMC",
        "city": "Mumbai"
    },
    {
        "lat": 19.215859,
        "lon": 72.831718,
        "id": "site_5962",
        "name": "Kandivali West, Mumbai - BMC",
        "city": "Mumbai"
    },
    {
        "lat": 19.000084,
        "lon": 72.85673,
        "id": "site_5963",
        "name": "Sewri, Mumbai - BMC",
        "city": "Mumbai"
    },
    {
        "lat": 19.083694,
        "lon": 72.920967,
        "id": "site_5964",
        "name": "Ghatkopar, Mumbai - BMC",
        "city": "Mumbai"
    }
]